{"metadata":{"records":{"broken":79,"tied":49},"resultset":{"offset":0,"count":128,"limit":1000}},"results":[{"date":"2017-02-03","por":"59","dataType":"LTMN","latitude":47.0036,"station":"GHCND:USC00240075","difference":0,"stationName":"ALBERTON, MT US","previousDate":"1972-02-03","value":-233,"previousValue":-233,"longitude":-114.4781},{"date":"2017-02-03","por":"47","dataType":"LTMN","latitude":47.6,"station":"GHCND:USC00244297","difference":-5,"stationName":"HOT SPRINGS, MT US","previousDate":"1989-02-03","value":-283,"previousValue":-278,"longitude":-114.68333},{"date":"2017-02-03","por":"110","dataType":"LTMN","latitude":19.4918,"station":"GHCND:USC00513977","difference":0,"stationName":"KEALAKEKUA 26.2, HI US","previousDate":"2012-02-03","value":128,"previousValue":128,"longitude":-155.9117},{"date":"2017-02-04","por":"41","dataType":"LTMN","latitude":37.6664,"station":"GHCND:USC00442142","difference":-6,"stationName":"CROZIER, VA US","previousDate":"1981-02-04","value":-150,"previousValue":-144,"longitude":-77.8769},{"date":"2017-02-07","por":"59","dataType":"LTMN","latitude":47.8344,"station":"GHCND:USC00451350","difference":-11,"stationName":"CHELAN, WA US","previousDate":"1969-02-07","value":-139,"previousValue":-128,"longitude":-120.0005},{"date":"2017-02-07","por":"68","dataType":"LTMN","latitude":47.20778,"station":"GHCND:USW00024110","difference":0,"stationName":"MOSES LAKE GRANT CO AIRPORT, WA US","previousDate":"2014-02-07","value":-171,"previousValue":-171,"longitude":-119.31917},{"date":"2017-02-08","por":"36","dataType":"LTMN","latitude":48.4472,"station":"GHCND:USC00242629","difference":-39,"stationName":"EAST GLACIER, MT US","previousDate":"1982-02-08","value":-317,"previousValue":-278,"longitude":-113.2236},{"date":"2017-02-08","por":"59","dataType":"LTMN","latitude":47.8344,"station":"GHCND:USC00451350","difference":-6,"stationName":"CHELAN, WA US","previousDate":"1994-02-08","value":-128,"previousValue":-122,"longitude":-120.0005},{"date":"2017-02-09","por":"68","dataType":"LTMN","latitude":47.20778,"station":"GHCND:USW00024110","difference":-15,"stationName":"MOSES LAKE GRANT CO AIRPORT, WA US","previousDate":"1956-02-09","value":-82,"previousValue":-67,"longitude":-119.31917},{"date":"2017-02-10","por":"31","dataType":"LTMN","latitude":42.783,"station":"GHCND:USC00274234","difference":0,"stationName":"HUDSON 1 SSE, NH US","previousDate":"1992-02-10","value":-194,"previousValue":-194,"longitude":-71.4148},{"date":"2017-02-11","por":"33","dataType":"LTMN","latitude":65.12,"station":"GHCND:USS0046Q02S","difference":-20,"stationName":"Little Chena Ridge, AK US","previousDate":"1994-02-11","value":-300,"previousValue":-280,"longitude":-146.73},{"date":"2017-02-11","por":"68","dataType":"LTMN","latitude":57.75111,"station":"GHCND:USW00025501","difference":-5,"stationName":"KODIAK AIRPORT, AK US","previousDate":"1996-02-11","value":-127,"previousValue":-122,"longitude":-152.48556},{"date":"2017-02-12","por":"54","dataType":"LTMN","latitude":44.5077,"station":"GHCND:USC00351877","difference":-6,"stationName":"CORVALLIS WATER BUREAU, OR US","previousDate":"2009-02-12","value":-56,"previousValue":-50,"longitude":-123.4575},{"date":"2017-02-12","por":"35","dataType":"LTMN","latitude":65.08,"station":"GHCND:USS0045Q02S","difference":-11,"stationName":"Monument Creek, AK US","previousDate":"2014-02-12","value":-371,"previousValue":-360,"longitude":-145.87},{"date":"2017-02-12","por":"33","dataType":"LTMN","latitude":65.12,"station":"GHCND:USS0046Q02S","difference":-1,"stationName":"Little Chena Ridge, AK US","previousDate":"1984-02-12","value":-311,"previousValue":-310,"longitude":-146.73},{"date":"2017-02-12","por":"32","dataType":"LTMN","latitude":60.78,"station":"GHCND:USS0049L13S","difference":-7,"stationName":"Turnagain Pass, AK US","previousDate":"1994-02-12","value":-197,"previousValue":-190,"longitude":-149.18},{"date":"2017-02-12","por":"35","dataType":"LTMN","latitude":61.07,"station":"GHCND:USS0049M08S","difference":-1,"stationName":"Indian Pass, AK US","previousDate":"1994-02-12","value":-211,"previousValue":-210,"longitude":-149.48},{"date":"2017-02-12","por":"68","dataType":"LTMN","latitude":47.20778,"station":"GHCND:USW00024110","difference":-11,"stationName":"MOSES LAKE GRANT CO AIRPORT, WA US","previousDate":"1959-02-12","value":-105,"previousValue":-94,"longitude":-119.31917},{"date":"2017-02-13","por":"59","dataType":"LTMN","latitude":47.8344,"station":"GHCND:USC00451350","difference":-5,"stationName":"CHELAN, WA US","previousDate":"1959-02-13","value":-111,"previousValue":-106,"longitude":-120.0005},{"date":"2017-02-13","por":"68","dataType":"LTMN","latitude":47.20778,"station":"GHCND:USW00024110","difference":-38,"stationName":"MOSES LAKE GRANT CO AIRPORT, WA US","previousDate":"1952-02-13","value":-116,"previousValue":-78,"longitude":-119.31917},{"date":"2017-02-14","por":"68","dataType":"LTMN","latitude":47.20778,"station":"GHCND:USW00024110","difference":-60,"stationName":"MOSES LAKE GRANT CO AIRPORT, WA US","previousDate":"1964-02-14","value":-127,"previousValue":-67,"longitude":-119.31917},{"date":"2017-02-14","por":"77","dataType":"LTMN","latitude":47.03389,"station":"GHCND:USW00024220","difference":-15,"stationName":"ELLENSBURG BOWERS FIELD, WA US","previousDate":"1949-02-14","value":-132,"previousValue":-117,"longitude":-120.53028},{"date":"2017-02-15","por":"103","dataType":"LTMN","latitude":17.9783,"station":"GHCND:RQC00664193","difference":0,"stationName":"GUAYAMA 2 E, US","previousDate":"1962-02-15","value":183,"previousValue":183,"longitude":-66.0874},{"date":"2017-02-15","por":"38","dataType":"LTMN","latitude":21.9591,"station":"GHCND:USC00519629","difference":0,"stationName":"WAIMEA 947, HI US","previousDate":"1996-02-15","value":128,"previousValue":128,"longitude":-159.6759},{"date":"2017-02-15","por":"64","dataType":"LTMN","latitude":18.3363,"station":"GHCND:VQW00011640","difference":0,"stationName":"CHARLOTTE AMALIE CYRIL E KING AIRPORT, US","previousDate":"1960-02-15","value":200,"previousValue":200,"longitude":-64.98},{"date":"2017-02-16","por":"103","dataType":"LTMN","latitude":17.9783,"station":"GHCND:RQC00664193","difference":0,"stationName":"GUAYAMA 2 E, US","previousDate":"1962-02-16","value":183,"previousValue":183,"longitude":-66.0874},{"date":"2017-02-20","por":"67","dataType":"LTMN","latitude":55.22083,"station":"GHCND:USW00025624","difference":-49,"stationName":"COLD BAY AIRPORT, AK US","previousDate":"1982-02-20","value":-210,"previousValue":-161,"longitude":-162.7325},{"date":"2017-02-22","por":"48","dataType":"LTMN","latitude":18.1511,"station":"GHCND:RQC00665908","difference":0,"stationName":"MARICAO 2 SSW, US","previousDate":"2005-02-22","value":144,"previousValue":144,"longitude":-66.9888},{"date":"2017-02-22","por":"68","dataType":"LTMN","latitude":37.3436,"station":"GHCND:USC00045933","difference":0,"stationName":"MOUNT HAMILTON, CA US","previousDate":"1996-02-22","value":-33,"previousValue":-33,"longitude":-121.6425},{"date":"2017-02-22","por":"32","dataType":"LTMN","latitude":43.9281,"station":"GHCND:USR0000OGOO","difference":0,"stationName":"GOODWIN PEAK OREGON, OR US","previousDate":"2007-02-22","value":-6,"previousValue":-6,"longitude":-123.8903},{"date":"2017-02-23","por":"112","dataType":"LTMN","latitude":38.9072,"station":"GHCND:USC00040383","difference":0,"stationName":"AUBURN, CA US","previousDate":"1955-02-23","value":-6,"previousValue":-6,"longitude":-121.0838},{"date":"2017-02-23","por":"122","dataType":"LTMN","latitude":39.5091,"station":"GHCND:USC00043161","difference":0,"stationName":"FORT BRAGG 5 N, CA US","previousDate":"1974-02-23","value":-6,"previousValue":-6,"longitude":-123.7566},{"date":"2017-02-23","por":"110","dataType":"LTMN","latitude":39.523,"station":"GHCND:USC00049699","difference":0,"stationName":"WILLOWS 6 W, CA US","previousDate":"1951-02-23","value":-11,"previousValue":-11,"longitude":-122.3058},{"date":"2017-02-23","por":"59","dataType":"LTMN","latitude":47.8344,"station":"GHCND:USC00451350","difference":0,"stationName":"CHELAN, WA US","previousDate":"1980-02-23","value":-72,"previousValue":-72,"longitude":-120.0005},{"date":"2017-02-23","por":"49","dataType":"LTMN","latitude":45.9481,"station":"GHCND:USC00457342","difference":0,"stationName":"SATUS PASS 2 SSW, WA US","previousDate":"1977-02-23","value":-83,"previousValue":-83,"longitude":-120.6669},{"date":"2017-02-23","por":"32","dataType":"LTMN","latitude":40.2569,"station":"GHCND:USR0000CCOO","difference":-16,"stationName":"COOSKIE MOUNTAIN CALIFORNIA, CA US","previousDate":"2008-02-23","value":-33,"previousValue":-17,"longitude":-124.2661},{"date":"2017-02-23","por":"32","dataType":"LTMN","latitude":41.9919,"station":"GHCND:USR0000CCRZ","difference":0,"stationName":"CRAZY PEAK CALIFORNIA, CA US","previousDate":"2007-02-23","value":-61,"previousValue":-61,"longitude":-123.6036},{"date":"2017-02-23","por":"31","dataType":"LTMN","latitude":41.92,"station":"GHCND:USR0000NCAT","difference":-33,"stationName":"CATNIP MOUNTAIN NEVADA, NV US","previousDate":"2015-02-23","value":-150,"previousValue":-117,"longitude":-119.495},{"date":"2017-02-23","por":"32","dataType":"LTMN","latitude":43.9247,"station":"GHCND:USR0000OALL","difference":-5,"stationName":"ALLISON OREGON, OR US","previousDate":"2015-02-23","value":-144,"previousValue":-139,"longitude":-119.5944},{"date":"2017-02-23","por":"32","dataType":"LTMN","latitude":42.7,"station":"GHCND:USR0000OBKL","difference":-12,"stationName":"BALD KNOB LOOKOUT OREGON, OR US","previousDate":"1996-02-23","value":-56,"previousValue":-44,"longitude":-124.0333},{"date":"2017-02-23","por":"31","dataType":"LTMN","latitude":42.5769,"station":"GHCND:USR0000OCHI","difference":0,"stationName":"CHILOQUIN OREGON, OR US","previousDate":"2015-02-23","value":-78,"previousValue":-78,"longitude":-121.8936},{"date":"2017-02-23","por":"32","dataType":"LTMN","latitude":43.4158,"station":"GHCND:USR0000OGAD","difference":0,"stationName":"GRANDAD OREGON, OR US","previousDate":"2008-02-23","value":-28,"previousValue":-28,"longitude":-122.5772},{"date":"2017-02-23","por":"31","dataType":"LTMN","latitude":42.2056,"station":"GHCND:USR0000OGER","difference":-5,"stationName":"GERBER RESERVOIR OREGON, OR US","previousDate":"2007-02-23","value":-111,"previousValue":-106,"longitude":-121.1389},{"date":"2017-02-23","por":"32","dataType":"LTMN","latitude":42.6261,"station":"GHCND:USR0000OGRM","difference":-6,"stationName":"GRASSY MOUNTAIN OREGON, OR US","previousDate":"2015-02-23","value":-100,"previousValue":-94,"longitude":-117.395},{"date":"2017-02-23","por":"32","dataType":"LTMN","latitude":42.2167,"station":"GHCND:USR0000OQUA","difference":-3,"stationName":"QUAIL PRAIRIE LOOKOUT OREGON, OR US","previousDate":"1993-02-23","value":-44,"previousValue":-41,"longitude":-124.0333},{"date":"2017-02-23","por":"32","dataType":"LTMN","latitude":42.4075,"station":"GHCND:USR0000OSEL","difference":-22,"stationName":"SELDOM CREEK OREGON, OR US","previousDate":"2008-02-23","value":-122,"previousValue":-100,"longitude":-122.1914},{"date":"2017-02-23","por":"32","dataType":"LTMN","latitude":42.2322,"station":"GHCND:USR0000OSUM","difference":-17,"stationName":"SUMMIT OREGON, OR US","previousDate":"2011-02-23","value":-111,"previousValue":-94,"longitude":-120.2456},{"date":"2017-02-23","por":"31","dataType":"LTMN","latitude":44.2525,"station":"GHCND:USR0000OVIL","difference":0,"stationName":"VILLAGE CREEK OREGON, OR US","previousDate":"2011-02-23","value":-22,"previousValue":-22,"longitude":-123.4639},{"date":"2017-02-23","por":"34","dataType":"LTMN","latitude":39.32,"station":"GHCND:USS0019K07S","difference":-3,"stationName":"Mt Rose Ski Area, NV US","previousDate":"2001-02-23","value":-158,"previousValue":-155,"longitude":-119.89},{"date":"2017-02-23","por":"32","dataType":"LTMN","latitude":38.85,"station":"GHCND:USS0020L06S","difference":-1,"stationName":"Echo Peak, CA US","previousDate":"2000-02-23","value":-129,"previousValue":-128,"longitude":-120.08},{"date":"2017-02-23","por":"70","dataType":"LTMN","latitude":38.5069,"station":"GHCND:USW00023232","difference":-6,"stationName":"SACRAMENTO EXECUTIVE AIRPORT, CA US","previousDate":"2011-02-23","value":0,"previousValue":6,"longitude":-121.495},{"date":"2017-02-23","por":"68","dataType":"LTMN","latitude":47.20778,"station":"GHCND:USW00024110","difference":-15,"stationName":"MOSES LAKE GRANT CO AIRPORT, WA US","previousDate":"1952-02-23","value":-82,"previousValue":-67,"longitude":-119.31917},{"date":"2017-02-23","por":"64","dataType":"LTMN","latitude":46.9727,"station":"GHCND:USW00094225","difference":-10,"stationName":"HOQUIAM BOWERMAN AIRPORT, WA US","previousDate":"1960-02-23","value":-27,"previousValue":-17,"longitude":-123.9302},{"date":"2017-02-23","por":"50","dataType":"LTMN","latitude":47.9375,"station":"GHCND:USW00094240","difference":-5,"stationName":"QUILLAYUTE STATE AIRPORT, WA US","previousDate":"1987-02-23","value":-38,"previousValue":-33,"longitude":-124.555},{"date":"2017-02-24","por":"87","dataType":"LTMN","latitude":33.7477,"station":"GHCND:USC00029464","difference":0,"stationName":"WITTMANN 4 SW, AZ US","previousDate":"1965-02-24","value":-11,"previousValue":-11,"longitude":-112.5983},{"date":"2017-02-24","por":"123","dataType":"LTMN","latitude":41.5301,"station":"GHCND:USC00041614","difference":0,"stationName":"CEDARVILLE, CA US","previousDate":"1913-02-24","value":-128,"previousValue":-128,"longitude":-120.1791},{"date":"2017-02-24","por":"122","dataType":"LTMN","latitude":39.5091,"station":"GHCND:USC00043161","difference":0,"stationName":"FORT BRAGG 5 N, CA US","previousDate":"1987-02-24","value":-11,"previousValue":-11,"longitude":-123.7566},{"date":"2017-02-24","por":"81","dataType":"LTMN","latitude":41.6,"station":"GHCND:USC00043182","difference":0,"stationName":"FORT JONES RNG STATION, CA US","previousDate":"2015-02-24","value":-94,"previousValue":-94,"longitude":-122.8478},{"date":"2017-02-24","por":"54","dataType":"LTMN","latitude":38.933,"station":"GHCND:USC00043384","difference":0,"stationName":"GEORGETOWN R S, CA US","previousDate":"1987-02-24","value":-39,"previousValue":-39,"longitude":-120.8008},{"date":"2017-02-24","por":"77","dataType":"LTMN","latitude":37.4725,"station":"GHCND:USC00043714","difference":0,"stationName":"HALF MOON BAY, CA US","previousDate":"1955-02-24","value":6,"previousValue":6,"longitude":-122.44333},{"date":"2017-02-24","por":"68","dataType":"LTMN","latitude":41.2683,"station":"GHCND:USC00044374","difference":0,"stationName":"JESS VALLEY, CA US","previousDate":"1969-02-24","value":-156,"previousValue":-156,"longitude":-120.2947},{"date":"2017-02-24","por":"47","dataType":"LTMN","latitude":38.4916,"station":"GHCND:USC00045360","difference":0,"stationName":"MARKLEY COVE, CA US","previousDate":"1982-02-24","value":-11,"previousValue":-11,"longitude":-122.1241},{"date":"2017-02-24","por":"112","dataType":"LTMN","latitude":34.4477,"station":"GHCND:USC00046399","difference":0,"stationName":"OJAI, CA US","previousDate":"1987-02-24","value":-28,"previousValue":-28,"longitude":-119.2275},{"date":"2017-02-24","por":"44","dataType":"LTMN","latitude":43.7383,"station":"GHCND:USC00101017","difference":0,"stationName":"BOISE 7 N, ID US","previousDate":"2003-02-24","value":-94,"previousValue":-94,"longitude":-116.2022},{"date":"2017-02-24","por":"60","dataType":"LTMN","latitude":41.7437,"station":"GHCND:USC00264236","difference":-34,"stationName":"KINGS RIVER VALLEY OROVADA 26 NW, NV US","previousDate":"1960-02-24","value":-156,"previousValue":-122,"longitude":-118.2259},{"date":"2017-02-24","por":"125","dataType":"LTMN","latitude":41.9954,"station":"GHCND:USC00264935","difference":-55,"stationName":"MCDERMITT, NV US","previousDate":"2015-02-24","value":-183,"previousValue":-128,"longitude":-117.7201},{"date":"2017-02-24","por":"32","dataType":"LTMN","latitude":38.8619,"station":"GHCND:USR0000CKNO","difference":-5,"stationName":"KNOXVILLE CREEK CALIFORNIA, CA US","previousDate":"2000-02-24","value":-22,"previousValue":-17,"longitude":-122.4172},{"date":"2017-02-24","por":"32","dataType":"LTMN","latitude":40.9528,"station":"GHCND:USR0000HEWI","difference":-11,"stationName":"HEWINTA UTAH, UT US","previousDate":"2013-02-24","value":-244,"previousValue":-233,"longitude":-110.4806},{"date":"2017-02-24","por":"32","dataType":"LTMN","latitude":43.5,"station":"GHCND:USR0000OCAB","difference":-5,"stationName":"CABIN LAKE OREGON, OR US","previousDate":"1996-02-24","value":-172,"previousValue":-167,"longitude":-121.05},{"date":"2017-02-24","por":"31","dataType":"LTMN","latitude":42.5769,"station":"GHCND:USR0000OCHI","difference":-16,"stationName":"CHILOQUIN OREGON, OR US","previousDate":"2013-02-24","value":-122,"previousValue":-106,"longitude":-121.8936},{"date":"2017-02-24","por":"31","dataType":"LTMN","latitude":42.2056,"station":"GHCND:USR0000OGER","difference":0,"stationName":"GERBER RESERVOIR OREGON, OR US","previousDate":"1996-02-24","value":-150,"previousValue":-150,"longitude":-121.1389},{"date":"2017-02-24","por":"32","dataType":"LTMN","latitude":42.6261,"station":"GHCND:USR0000OGRM","difference":-5,"stationName":"GRASSY MOUNTAIN OREGON, OR US","previousDate":"1996-02-24","value":-122,"previousValue":-117,"longitude":-117.395},{"date":"2017-02-24","por":"32","dataType":"LTMN","latitude":42.2322,"station":"GHCND:USR0000OSUM","difference":-11,"stationName":"SUMMIT OREGON, OR US","previousDate":"2013-02-24","value":-128,"previousValue":-117,"longitude":-120.2456},{"date":"2017-02-24","por":"33","dataType":"LTMN","latitude":39.4678,"station":"GHCND:USR0000UPRC","difference":-6,"stationName":"UPPER P.R. CANYON UTAH, UT US","previousDate":"1997-02-24","value":-150,"previousValue":-144,"longitude":-109.2836},{"date":"2017-02-24","por":"31","dataType":"LTMN","latitude":38.49,"station":"GHCND:USS0006L03S","difference":-11,"stationName":"Porphyry Creek, CO US","previousDate":"1991-02-24","value":-221,"previousValue":-210,"longitude":-106.34},{"date":"2017-02-24","por":"33","dataType":"LTMN","latitude":37.38,"station":"GHCND:USS0006M23S","difference":-14,"stationName":"Lily Pond, CO US","previousDate":"2013-02-24","value":-189,"previousValue":-175,"longitude":-106.55},{"date":"2017-02-24","por":"32","dataType":"LTMN","latitude":40.38,"station":"GHCND:USS0015J09S","difference":-4,"stationName":"Green Mountain, NV US","previousDate":"1993-02-24","value":-150,"previousValue":-146,"longitude":-115.53},{"date":"2017-02-24","por":"32","dataType":"LTMN","latitude":40.28,"station":"GHCND:USS0015J12S","difference":-2,"stationName":"Corral Canyon, NV US","previousDate":"1993-02-24","value":-155,"previousValue":-153,"longitude":-115.53},{"date":"2017-02-24","por":"34","dataType":"LTMN","latitude":39.32,"station":"GHCND:USS0019K07S","difference":-5,"stationName":"Mt Rose Ski Area, NV US","previousDate":"1993-02-24","value":-169,"previousValue":-164,"longitude":-119.89},{"date":"2017-02-24","por":"34","dataType":"LTMN","latitude":39.45,"station":"GHCND:USS0020K04S","difference":-10,"stationName":"Independence Camp, CA US","previousDate":"2000-02-24","value":-197,"previousValue":-187,"longitude":-120.29},{"date":"2017-02-24","por":"32","dataType":"LTMN","latitude":38.85,"station":"GHCND:USS0020L06S","difference":-4,"stationName":"Echo Peak, CA US","previousDate":"2000-02-24","value":-146,"previousValue":-142,"longitude":-120.08},{"date":"2017-02-24","por":"70","dataType":"LTMN","latitude":38.5069,"station":"GHCND:USW00023232","difference":-5,"stationName":"SACRAMENTO EXECUTIVE AIRPORT, CA US","previousDate":"2015-02-24","value":-5,"previousValue":0,"longitude":-121.495},{"date":"2017-02-24","por":"72","dataType":"LTMN","latitude":37.40583,"station":"GHCND:USW00023244","difference":0,"stationName":"MOFFETT FEDERAL AIRFIELD, CA US","previousDate":"1974-02-24","value":11,"previousValue":11,"longitude":-122.04806},{"date":"2017-02-24","por":"139","dataType":"LTMN","latitude":38.5552,"station":"GHCND:USW00023271","difference":0,"stationName":"SACRAMENTO 5 ESE, CA US","previousDate":"1960-02-24","value":17,"previousValue":17,"longitude":-121.4183},{"date":"2017-02-24","por":"96","dataType":"LTMN","latitude":37.7705,"station":"GHCND:USW00023272","difference":0,"stationName":"SAN FRANCISCO DOWNTOWN, CA US","previousDate":"1987-02-24","value":50,"previousValue":50,"longitude":-122.4269},{"date":"2017-02-24","por":"44","dataType":"LTMN","latitude":43.595,"station":"GHCND:USW00094185","difference":-4,"stationName":"BURNS MUNICIPAL AIRPORT, OR US","previousDate":"1993-02-24","value":-160,"previousValue":-156,"longitude":-118.9564},{"date":"2017-02-25","por":"88","dataType":"LTMN","latitude":34.5975,"station":"GHCND:USC00020586","difference":0,"stationName":"BAGDAD, AZ US","previousDate":"2013-02-25","value":-56,"previousValue":-56,"longitude":-113.1745},{"date":"2017-02-25","por":"39","dataType":"LTMN","latitude":35.1411,"station":"GHCND:USC00021050","difference":-11,"stationName":"BULLHEAD CITY, AZ US","previousDate":"2012-02-25","value":22,"previousValue":33,"longitude":-114.5686},{"date":"2017-02-25","por":"46","dataType":"LTMN","latitude":36.1533,"station":"GHCND:USC00021248","difference":-5,"stationName":"CANYON DE CHELLY, AZ US","previousDate":"1974-02-25","value":-111,"previousValue":-106,"longitude":-109.5394},{"date":"2017-02-25","por":"87","dataType":"LTMN","latitude":33.7477,"station":"GHCND:USC00029464","difference":0,"stationName":"WITTMANN 4 SW, AZ US","previousDate":"1964-02-25","value":-6,"previousValue":-6,"longitude":-112.5983},{"date":"2017-02-25","por":"54","dataType":"LTMN","latitude":36.9092,"station":"GHCND:USC00040449","difference":0,"stationName":"BALCH POWER HOUSE, CA US","previousDate":"1998-02-25","value":6,"previousValue":6,"longitude":-119.0883},{"date":"2017-02-25","por":"56","dataType":"LTMN","latitude":36.4622,"station":"GHCND:USC00042319","difference":-6,"stationName":"DEATH VALLEY, CA US","previousDate":"2001-02-25","value":33,"previousValue":39,"longitude":-116.8669},{"date":"2017-02-25","por":"41","dataType":"LTMN","latitude":36.8483,"station":"GHCND:USC00044025","difference":0,"stationName":"HOLLISTER 2, CA US","previousDate":"2013-02-25","value":0,"previousValue":0,"longitude":-121.4213},{"date":"2017-02-25","por":"39","dataType":"LTMN","latitude":36.6897,"station":"GHCND:USC00293142","difference":-5,"stationName":"FARMINGTON AG SCIENCE CNT, NM US","previousDate":"2013-02-25","value":-94,"previousValue":-89,"longitude":-108.3086},{"date":"2017-02-25","por":"37","dataType":"LTMN","latitude":33.95444,"station":"GHCND:USC00416137","difference":0,"stationName":"MULESHOE NWR, TX US","previousDate":"2003-02-25","value":-117,"previousValue":-117,"longitude":-102.77833},{"date":"2017-02-25","por":"72","dataType":"LTMN","latitude":40.5905,"station":"GHCND:USC00420072","difference":-11,"stationName":"ALTA, UT US","previousDate":"1962-02-25","value":-194,"previousValue":-183,"longitude":-111.6369},{"date":"2017-02-25","por":"37","dataType":"LTMN","latitude":38.6163,"station":"GHCND:USC00420336","difference":-5,"stationName":"ARCHES NATIONAL PARK HQS, UT US","previousDate":"2013-02-25","value":-61,"previousValue":-56,"longitude":-109.6191},{"date":"2017-02-25","por":"36","dataType":"LTMN","latitude":38.2553,"station":"GHCND:USC00423600","difference":0,"stationName":"HANS FLAT RANGER STATION, UT US","previousDate":"2013-02-25","value":-100,"previousValue":-100,"longitude":-110.18},{"date":"2017-02-25","por":"32","dataType":"LTMN","latitude":34.75,"station":"GHCND:USR0000AGOO","difference":-16,"stationName":"GOODWIN MESA ARIZONA, AZ US","previousDate":"2013-02-25","value":-44,"previousValue":-28,"longitude":-113.3},{"date":"2017-02-25","por":"31","dataType":"LTMN","latitude":39.6269,"station":"GHCND:USR0000CDOW","difference":0,"stationName":"DOWD JUNCTION COLORADO, CO US","previousDate":"2002-02-25","value":-178,"previousValue":-178,"longitude":-106.4517},{"date":"2017-02-25","por":"31","dataType":"LTMN","latitude":38.8417,"station":"GHCND:USR0000CJAY","difference":-11,"stationName":"JAY COLORADO, CO US","previousDate":"2013-02-25","value":-100,"previousValue":-89,"longitude":-107.7361},{"date":"2017-02-25","por":"32","dataType":"LTMN","latitude":40.0978,"station":"GHCND:USR0000CPOR","difference":0,"stationName":"PORCUPINE CREEK COLORADO, CO US","previousDate":"1991-02-25","value":-228,"previousValue":-228,"longitude":-106.6464},{"date":"2017-02-25","por":"32","dataType":"LTMN","latitude":39.5122,"station":"GHCND:USR0000CRIF","difference":0,"stationName":"RIFLE COLORADO, CO US","previousDate":"2013-02-25","value":-122,"previousValue":-122,"longitude":-107.7492},{"date":"2017-02-25","por":"31","dataType":"LTMN","latitude":38.1917,"station":"GHCND:USR0000CSAN","difference":-39,"stationName":"SANBORN PARK COLORADO, CO US","previousDate":"2007-02-25","value":-189,"previousValue":-150,"longitude":-108.2167},{"date":"2017-02-25","por":"33","dataType":"LTMN","latitude":40.6172,"station":"GHCND:USR0000DIAM","difference":-6,"stationName":"DIAMOND RIM, UT US","previousDate":"2002-02-25","value":-156,"previousValue":-150,"longitude":-109.2428},{"date":"2017-02-25","por":"32","dataType":"LTMN","latitude":40.9528,"station":"GHCND:USR0000HEWI","difference":0,"stationName":"HEWINTA UTAH, UT US","previousDate":"2002-02-25","value":-250,"previousValue":-250,"longitude":-110.4806},{"date":"2017-02-25","por":"31","dataType":"LTMN","latitude":40.8606,"station":"GHCND:USR0000KING","difference":-39,"stationName":"KINGS POINT DUTCH JOHN 16 ESE, UT US","previousDate":"2013-02-25","value":-183,"previousValue":-144,"longitude":-109.1022},{"date":"2017-02-25","por":"31","dataType":"LTMN","latitude":39.08,"station":"GHCND:USS0006K04S","difference":-19,"stationName":"Independence Pass, CO US","previousDate":"1991-02-25","value":-256,"previousValue":-237,"longitude":-106.61},{"date":"2017-02-25","por":"33","dataType":"LTMN","latitude":37.49,"station":"GHCND:USS0006M03S","difference":-43,"stationName":"Upper San Juan, CO US","previousDate":"1991-02-25","value":-255,"previousValue":-212,"longitude":-106.84},{"date":"2017-02-25","por":"31","dataType":"LTMN","latitude":43.11,"station":"GHCND:USS0009F21S","difference":-5,"stationName":"New Fork Lake, WY US","previousDate":"2003-02-25","value":-241,"previousValue":-236,"longitude":-109.95},{"date":"2017-02-25","por":"31","dataType":"LTMN","latitude":37.81,"station":"GHCND:USS0009M02S","difference":-12,"stationName":"Camp Jackson, UT US","previousDate":"1987-02-25","value":-144,"previousValue":-132,"longitude":-109.49},{"date":"2017-02-25","por":"39","dataType":"LTMN","latitude":36.6206,"station":"GHCND:USW00003160","difference":-5,"stationName":"MERCURY DESERT ROCK AIRPORT, NV US","previousDate":"1996-02-25","value":-27,"previousValue":-22,"longitude":-116.0278},{"date":"2017-02-25","por":"56","dataType":"LTMN","latitude":36.33333,"station":"GHCND:USW00023110","difference":-6,"stationName":"LEMOORE REEVES NAS, CA US","previousDate":"2013-02-25","value":-16,"previousValue":-10,"longitude":-119.95},{"date":"2017-02-25","por":"79","dataType":"LTMN","latitude":35.4344,"station":"GHCND:USW00023155","difference":0,"stationName":"BAKERSFIELD AIRPORT, CA US","previousDate":"2013-02-25","value":6,"previousValue":6,"longitude":-119.0542},{"date":"2017-02-25","por":"106","dataType":"LTMN","latitude":38.3713,"station":"GHCND:USW00023170","difference":0,"stationName":"HANKSVILLE, UT US","previousDate":"1955-02-25","value":-144,"previousValue":-144,"longitude":-110.7103},{"date":"2017-02-25","por":"72","dataType":"LTMN","latitude":32.7,"station":"GHCND:USW00093112","difference":0,"stationName":"NORTH ISLAND NAS, CA US","previousDate":"1960-02-25","value":44,"previousValue":44,"longitude":-117.2},{"date":"2017-02-26","por":"35","dataType":"LTMN","latitude":37.9806,"station":"GHCND:USC00051964","difference":-6,"stationName":"CRESTONE 2 SE, CO US","previousDate":"2013-02-26","value":-139,"previousValue":-133,"longitude":-105.6897},{"date":"2017-02-26","por":"64","dataType":"LTMN","latitude":40.3561,"station":"GHCND:USC00420074","difference":-22,"stationName":"ALTAMONT, UT US","previousDate":"1964-02-26","value":-200,"previousValue":-178,"longitude":-110.2877},{"date":"2017-02-26","por":"38","dataType":"LTMN","latitude":37.5141,"station":"GHCND:USC00424755","difference":-33,"stationName":"KODACHROME BASIN PARK, UT US","previousDate":"2010-02-26","value":-133,"previousValue":-100,"longitude":-111.9883},{"date":"2017-02-26","por":"31","dataType":"LTMN","latitude":40.8606,"station":"GHCND:USR0000KING","difference":-27,"stationName":"KINGS POINT DUTCH JOHN 16 ESE, UT US","previousDate":"2002-02-26","value":-194,"previousValue":-167,"longitude":-109.1022},{"date":"2017-02-26","por":"31","dataType":"LTMN","latitude":39.8,"station":"GHCND:USS0005K14S","difference":-33,"stationName":"Berthoud Summit, CO US","previousDate":"2015-02-26","value":-231,"previousValue":-198,"longitude":-105.78},{"date":"2017-02-26","por":"31","dataType":"LTMN","latitude":39.08,"station":"GHCND:USS0006K04S","difference":-15,"stationName":"Independence Pass, CO US","previousDate":"1991-02-26","value":-241,"previousValue":-226,"longitude":-106.61},{"date":"2017-02-26","por":"31","dataType":"LTMN","latitude":39.02,"station":"GHCND:USS0007K11S","difference":-1,"stationName":"Schofield Pass, CO US","previousDate":"1998-02-26","value":-218,"previousValue":-217,"longitude":-107.05},{"date":"2017-02-26","por":"31","dataType":"LTMN","latitude":39.76,"station":"GHCND:USS0007K12S","difference":-1,"stationName":"Bison Lake, CO US","previousDate":"1998-02-26","value":-207,"previousValue":-206,"longitude":-107.36},{"date":"2017-02-27","por":"48","dataType":"LTMN","latitude":40.9466,"station":"GHCND:USC00049694","difference":0,"stationName":"WILLOW CREEK 1 NW, CA US","previousDate":"2001-02-27","value":-33,"previousValue":-33,"longitude":-123.6363},{"date":"2017-02-27","por":"63","dataType":"LTMN","latitude":40.1056,"station":"GHCND:USC00429133","difference":-16,"stationName":"VERNON, UT US","previousDate":"1996-02-27","value":-233,"previousValue":-217,"longitude":-112.435},{"date":"2017-02-28","por":"39","dataType":"LTMN","latitude":35.1411,"station":"GHCND:USC00021050","difference":0,"stationName":"BULLHEAD CITY, AZ US","previousDate":"1987-02-28","value":22,"previousValue":22,"longitude":-114.5686},{"date":"2017-02-28","por":"33","dataType":"LTMN","latitude":38.61,"station":"GHCND:USS0019L05S","difference":-33,"stationName":"Blue Lakes, CA US","previousDate":"2001-02-28","value":-197,"previousValue":-164,"longitude":-119.92}]}